,mavpackettype,time_boot_ms,roll,pitch,yaw,rollspeed,pitchspeed,yawspeed,lat,lon,alt,relative_alt,vx,vy,vz,hdg
0,UAV_ATTITUDE,0,0.020393036305904003,0.012542852200567,0.295718073844909,-0.001011445187032,-0.001186277018859,-0.00011346361134200001,,,,,,,,
1,GCS_ATTITUDE,0,-0.023364951834082003,0.12352313101291601,-0.12260140478610901,0.000993494875729,0.00039496843237400004,0.00047098167124200006,,,,,,,,
2,GCS_ATTITUDE,100,-0.023374499753117003,0.12350120395421901,-0.12261423468589701,-0.00015023536980100002,0.000763433403335,0.000189007609151,,,,,,,,
3,UAV_ATTITUDE,100,0.020423073321580002,0.012551578693091,0.295651495456695,-0.00014925282448500002,3.638467751443386e-05,-0.000859300780575,,,,,,,,
4,UAV_GLOBAL_POSITION_INT,140,,,,,,,427246759.0,-844808016.0,274120.0,2186.0,-1.0,-2.0,0.0,1693.0
5,UAV_ATTITUDE,200,0.020348083227872002,0.012535940855741001,0.295630574226379,0.00011686049401700001,-0.0017176603432740001,5.434034392237663e-06,,,,,,,,
6,GCS_ATTITUDE,200,-0.023289494216442,0.12350647896528201,-0.122639246284961,0.001261396333575,0.000861462787725,0.000663478334899,,,,,,,,
7,GCS_GLOBAL_POSITION_INT,271,,,,,,,427245943.0,-844808901.0,274430.0,2493.0,2.0,0.0,0.0,35298.0
8,UAV_ATTITUDE,300,0.020351603627204,0.012533183209598,0.295623689889907,-0.0008183866739270001,0.000797791290096,0.000345724809449,,,,,,,,
9,GCS_ATTITUDE,300,-0.023221433162689,0.123452901840209,-0.12261756509542401,-0.000538584776222,-0.00045010028406900003,0.001064416952431,,,,,,,,
10,UAV_ATTITUDE,400,0.020374670624732003,0.012547639198601001,0.295626163482666,0.000580967403948,0.000820768182165,-0.00056083430536,,,,,,,,
11,GCS_ATTITUDE,400,-0.023179471492767,0.123422384262084,-0.12267412245273501,0.0009391531348220001,0.000363178201951,-0.0006564443465320001,,,,,,,,
12,UAV_GLOBAL_POSITION_INT,473,,,,,,,427246758.0,-844808017.0,274120.0,2183.0,0.0,-2.0,0.0,1693.0
13,GCS_ATTITUDE,500,-0.023210482671856002,0.123347416520118,-0.1226472184062,-0.0014940816909070002,0.0006393558578560001,0.00150467432104,,,,,,,,
14,UAV_ATTITUDE,500,0.020393330603837002,0.012493639253079001,0.29565182328224104,-0.00010357331484500001,-0.001026688609272,0.0012139299651600002,,,,,,,,
15,GCS_ATTITUDE,600,-0.023152021691203003,0.123317994177341,-0.122614011168479,0.0007575955241910001,-0.0008890065364530001,0.000142987410072,,,,,,,,
16,UAV_ATTITUDE,600,0.020415656268596,0.012505431659519001,0.295635610818862,-0.0008371900767080001,-0.000543453963473,-0.0007994440384200001,,,,,,,,
17,GCS_GLOBAL_POSITION_INT,606,,,,,,,427245945.0,-844808901.0,274420.0,2482.0,2.0,0.0,1.0,35298.0
18,GCS_ATTITUDE,700,-0.023183647543191,0.12336459010839401,-0.122642025351524,0.0005338815972200001,0.000245259609073,0.0008478629752060001,,,,,,,,
19,UAV_ATTITUDE,700,0.02042281627655,0.012454907409846,0.295611023902893,0.0008714366704220001,-0.00102689792402,-0.0007701323484070001,,,,,,,,
20,GCS_ATTITUDE,800,-0.02324129268527,0.12343645840883201,-0.12264870107173902,-0.0012588193640110002,0.0016130981966850002,-0.00047198298852800004,,,,,,,,
21,UAV_ATTITUDE,800,0.020458366721868,0.012398244813084,0.295682787895202,0.00040078908205,-0.000663662794977,0.0012816060334440002,,,,,,,,
22,UAV_GLOBAL_POSITION_INT,806,,,,,,,427246757.0,-844808018.0,274120.0,2183.0,0.0,-2.0,0.0,1694.0
23,UAV_ATTITUDE,900,0.020440682768821,0.012363568879663,0.295710772275924,-0.0008224714547390001,0.000532714650034,0.0010421540355300002,,,,,,,,
24,GCS_ATTITUDE,900,-0.023345507681369,0.123432748019695,-0.122607693076133,-0.000240168534219,-0.0006515856366600001,0.0014068316668270002,,,,,,,,
25,GCS_GLOBAL_POSITION_INT,938,,,,,,,427245948.0,-844808902.0,274410.0,2471.0,2.0,0.0,1.0,35298.0
26,GCS_ATTITUDE,1000,-0.023316413164138003,0.123493745923042,-0.12260758876800501,0.000130414031445,0.00094797136262,0.0011948224855580002,,,,,,,,
27,UAV_ATTITUDE,1000,0.020431507378816,0.012373778969049001,0.295716613531112,-0.0013673007488250002,-0.00054986285977,-0.00041548901936000005,,,,,,,,
28,UAV_ATTITUDE,1100,0.020510133355855,0.012345965020358,0.29573807120323103,0.000702984631061,0.0008606646442780001,8.228246588259935e-05,,,,,,,,
29,GCS_ATTITUDE,1100,-0.023300822824239002,0.12349782139062801,-0.12267483025789201,0.001131396740674,-0.000825963215902,-0.0012009791098530002,,,,,,,,
30,UAV_GLOBAL_POSITION_INT,1138,,,,,,,427246756.0,-844808020.0,274110.0,2179.0,0.0,-2.0,0.0,1694.0
31,UAV_ATTITUDE,1200,0.020453490316867003,0.012345585040748001,0.29579371213912903,-0.00012353807687700001,-0.000598593614995,-0.00015387660823700002,,,,,,,,
32,GCS_ATTITUDE,1200,-0.023285456001758003,0.12352585047483401,-0.12266746163368202,-0.00042934063822,0.00044986559078000004,0.0005717892199750001,,,,,,,,
33,GCS_GLOBAL_POSITION_INT,1271,,,,,,,427245949.0,-844808902.0,274400.0,2466.0,2.0,1.0,1.0,35298.0
34,UAV_ATTITUDE,1300,0.020435061305761,0.012292025610804001,0.295864909887313,-0.001393240876495,-0.00036510149948200003,0.000655096722766,,,,,,,,
35,GCS_ATTITUDE,1300,-0.023227719590067003,0.123547196388244,-0.122691951692104,0.000285094603896,0.000372046022675,0.000487361103296,,,,,,,,
36,GCS_ATTITUDE,1400,-0.023253977298736003,0.12363242357969201,-0.12267430126667,-0.001048379577696,-0.000106828287243,0.00024249873240400003,,,,,,,,
37,UAV_ATTITUDE,1400,0.020471516996622002,0.012372188270092002,0.2959466278553,0.0015983665362000001,0.0015201282221820002,0.00011846731649700001,,,,,,,,
38,UAV_GLOBAL_POSITION_INT,1471,,,,,,,427246755.0,-844808021.0,274110.0,2178.0,0.0,-2.0,0.0,1695.0
39,UAV_ATTITUDE,1500,0.020420607179403003,0.012389960698783,0.295964747667312,-0.00011485256254600001,0.0015695372130720001,0.0020067945588380003,,,,,,,,
40,GCS_ATTITUDE,1500,-0.023311244323849,0.12369464337825702,-0.122740909457206,0.000143227167427,-0.0020271572284400003,0.000161672360263,,,,,,,,
41,GCS_ATTITUDE,1600,-0.023344404995441003,0.12376584857702201,-0.122754089534282,-0.0013264603912830002,0.000323112937621,0.0008024192648,,,,,,,,
42,UAV_ATTITUDE,1600,0.020507555454969,0.01239160541445,0.29597401618957503,0.000377586111426,0.0016833672998470002,-0.000509112724103,,,,,,,,
43,GCS_GLOBAL_POSITION_INT,1603,,,,,,,427245951.0,-844808902.0,274410.0,2473.0,1.0,0.0,1.0,35297.0
44,UAV_ATTITUDE,1700,0.020544867962598003,0.012395775876939002,0.29599314928054804,0.00021793227642700002,-0.000691742170602,0.00045373642933500005,,,,,,,,
45,GCS_ATTITUDE,1700,-0.023383934050798003,0.12381198257207801,-0.122810564935207,-0.0011474918574090002,-0.00044456333853300006,-0.000271327793598,,,,,,,,
46,GCS_ATTITUDE,1800,-0.023429930210113,0.12391331791877701,-0.12288811057806001,-3.4320168197155e-05,0.000193504383787,-0.0008155087707560001,,,,,,,,
47,UAV_ATTITUDE,1800,0.020604886114597,0.012436286546289001,0.296011894941329,-4.13479283452034e-05,-0.000307941809296,-0.00013406947255100002,,,,,,,,
48,UAV_GLOBAL_POSITION_INT,1806,,,,,,,427246754.0,-844808022.0,274120.0,2183.0,0.0,-2.0,0.0,1696.0
49,GCS_ATTITUDE,1900,-0.023445248603820003,0.12393584102392101,-0.12292544543743102,0.001308218576014,-0.00026266532950100003,0.0011271252296860001,,,,,,,,
50,UAV_ATTITUDE,1900,0.020653367042541,0.012515250593423,0.29604086279869,0.001137310639023,0.0007410258986050001,0.001121727284044,,,,,,,,
51,GCS_GLOBAL_POSITION_INT,1936,,,,,,,427245952.0,-844808903.0,274410.0,2478.0,1.0,0.0,1.0,35296.0
52,UAV_ATTITUDE,2000,0.020663134753704,0.012502388097345002,0.29608312249183605,0.0015127453953020001,0.00014162692241300002,0.00010247906902800001,,,,,,,,
53,GCS_ATTITUDE,2000,-0.023468244820833,0.12387430667877102,-0.122890718281269,0.0017704097554080002,-0.0008241473697120001,0.0012275760527700001,,,,,,,,
54,UAV_ATTITUDE,2100,0.020687602460384,0.012461337260901002,0.29611507058143605,0.00016761384904300002,-0.00019225967116600002,0.0008375255856660001,,,,,,,,
55,GCS_ATTITUDE,2100,-0.023511921986937002,0.12391850352287201,-0.12288904190063402,0.000808627344667,0.000181777169927,0.0028495537117120004,,,,,,,,
56,UAV_GLOBAL_POSITION_INT,2138,,,,,,,427246753.0,-844808023.0,274130.0,2193.0,0.0,-2.0,0.0,1696.0
57,UAV_ATTITUDE,2200,0.020675759762525,0.012410948984324,0.296126842498779,-3.1560659408569336e-05,-0.0013563334941860002,0.000939633755479,,,,,,,,
58,GCS_ATTITUDE,2200,-0.023515198379755003,0.124009445309638,-0.122941993176937,0.0005094846710560001,0.0009738105582070001,1.7781974747776982e-05,,,,,,,,
59,GCS_GLOBAL_POSITION_INT,2271,,,,,,,427245953.0,-844808903.0,274420.0,2481.0,0.0,0.0,1.0,35296.0
60,UAV_ATTITUDE,2300,0.020709298551082,0.012399443425238,0.29609847068786604,-0.0005919151008120001,3.6641256883740425e-05,-0.0007505533867510001,,,,,,,,
61,GCS_ATTITUDE,2300,-0.023476399481296,0.12401130795478801,-0.12297549843788101,-0.00037802755832600003,4.88865189254284e-05,-0.00032834598096000004,,,,,,,,
62,UAV_ATTITUDE,2400,0.020756352692842,0.012358635663986001,0.296151012182235,0.001423697918653,-0.0008168653585010001,0.000570280360989,,,,,,,,
63,GCS_ATTITUDE,2400,-0.023467876017093003,0.12401340901851601,-0.12300021946430201,0.000238427892327,0.00011782045476100001,0.0009406903409390001,,,,,,,,
64,UAV_GLOBAL_POSITION_INT,2471,,,,,,,427246752.0,-844808024.0,274130.0,2190.0,0.0,-1.0,0.0,1696.0
65,GCS_ATTITUDE,2500,-0.023404590785503002,0.12406022846698701,-0.12294506281614301,0.000735484994947,0.001797050004824,0.0012943738838650002,,,,,,,,
66,UAV_ATTITUDE,2500,0.02082235366106,0.012363584712147001,0.296148002147674,0.000508172437548,0.00027397426310900004,0.00038174138171500005,,,,,,,,
67,UAV_ATTITUDE,2600,0.020842567086219,0.012309364974498001,0.29616510868072504,0.00022936612367600002,-4.022847861051559e-05,0.0006935913115730001,,,,,,,,
68,GCS_ATTITUDE,2600,-0.023299023509025,0.12405668944120402,-0.122946932911872,0.000661710277199,0.0008767263498150001,-0.000416641472838,,,,,,,,
69,GCS_GLOBAL_POSITION_INT,2603,,,,,,,427245956.0,-844808903.0,274420.0,2482.0,1.0,0.0,1.0,35296.0
70,GCS_ATTITUDE,2700,-0.023341048508882002,0.12408076226711201,-0.12290995568037001,0.000306143425405,0.000121064251288,0.000840286549646,,,,,,,,
71,UAV_ATTITUDE,2700,0.020860217511653,0.012182893231511002,0.29621136188507,-0.0007689902558920001,-0.0016622650437050001,0.001062565017491,,,,,,,,
72,UAV_ATTITUDE,2800,0.020880397409200002,0.012155596166849001,0.29621347784996005,0.000654467381536,-0.0006934788543730001,-0.0007873169379300001,,,,,,,,
73,GCS_ATTITUDE,2800,-0.023292966187,0.12402085214853201,-0.12292097508907301,-0.00017003901302800001,-0.0003551710397,-0.000271403754595,,,,,,,,
74,UAV_GLOBAL_POSITION_INT,2803,,,,,,,427246750.0,-844808025.0,274110.0,2178.0,0.0,-1.0,0.0,1697.0
75,UAV_ATTITUDE,2900,0.020829081535339,0.012189323082566001,0.296233683824539,-0.0008710771799080001,-0.000631619710475,0.0010959556093430001,,,,,,,,
76,GCS_ATTITUDE,2900,-0.023269280791282,0.12406558543443601,-0.12285653501749001,-0.00010247342288400001,0.000832473044283,-0.00011478416854500001,,,,,,,,
77,GCS_GLOBAL_POSITION_INT,2936,,,,,,,427245959.0,-844808903.0,274420.0,2482.0,1.0,0.0,0.0,35297.0
78,UAV_ATTITUDE,3000,0.020803600549697,0.012225988321006001,0.29622778296470603,-0.0011597611010070001,0.0018269844586020002,0.0010012272978200001,,,,,,,,
79,GCS_ATTITUDE,3000,-0.023262344300746002,0.12395179271697901,-0.122875452041625,-0.000250639393925,-0.00043649738654400003,0.000411417946452,,,,,,,,
80,GCS_ATTITUDE,3100,-0.023252943530678003,0.12391402572393401,-0.12286587059497801,-6.447266787290573e-05,0.000695684109814,-0.0006038625724610001,,,,,,,,
81,UAV_ATTITUDE,3100,0.020765867084264002,0.012219750322401001,0.296232372522354,0.000594265758991,0.00044099614024100005,-0.001135599683038,,,,,,,,
82,UAV_GLOBAL_POSITION_INT,3136,,,,,,,427246750.0,-844808027.0,274100.0,2166.0,0.0,-1.0,0.0,1697.0
83,UAV_ATTITUDE,3200,0.020841140300035,0.012248666957020002,0.296203106641769,0.0010582925751800002,0.000347178312949,-0.001008989056572,,,,,,,,
84,GCS_ATTITUDE,3200,-0.023314304649829,0.123863078653812,-0.122882708907127,5.6996941566467285e-06,0.001005149330012,0.0016125533729790002,,,,,,,,
85,GCS_GLOBAL_POSITION_INT,3268,,,,,,,427245962.0,-844808904.0,274420.0,2483.0,2.0,0.0,0.0,35296.0
86,GCS_ATTITUDE,3300,-0.023471005260944002,0.12383671849966,-0.12297161668539001,0.000105128623545,0.000497474335134,-0.0013563596876330001,,,,,,,,
87,UAV_ATTITUDE,3300,0.020827211439609,0.012268127873539002,0.29616248607635504,-0.00044465530663700004,6.892462261021137e-05,-0.00023716507712300003,,,,,,,,
88,GCS_ATTITUDE,3400,-0.023610955104231002,0.12395577132701802,-0.12299730628728801,0.000168967060744,-0.00045028491877000004,-4.558137152343989e-05,,,,,,,,
89,UAV_ATTITUDE,3400,0.020874127745628003,0.012394846417009001,0.29615852236747703,-0.0009316913783550001,0.001438540290109,-0.0009116515866480001,,,,,,,,
90,UAV_GLOBAL_POSITION_INT,3471,,,,,,,427246747.0,-844808028.0,274090.0,2154.0,0.0,-1.0,0.0,1697.0
91,GCS_ATTITUDE,3500,-0.023729896172881,0.12407249957323001,-0.12299626320600501,-0.00047236308455400004,0.0012049090582870001,0.000608100090175,,,,,,,,
92,UAV_ATTITUDE,3500,0.020884148776531,0.012488331645727001,0.296207249164581,-0.00011099036782900001,0.0006670082220800001,-0.000536983774509,,,,,,,,
93,UAV_ATTITUDE,3600,0.020951900631189003,0.012601613998413001,0.296289354562759,0.00159459747374,-6.85742124915123e-05,0.001136604812927,,,,,,,,
94,GCS_ATTITUDE,3600,-0.023724030703306,0.12423748522996901,-0.122956983745098,0.000537458807229,0.000395015929825,0.0012412933865560002,,,,,,,,
95,GCS_GLOBAL_POSITION_INT,3603,,,,,,,427245964.0,-844808906.0,274420.0,2484.0,1.0,0.0,0.0,35296.0
96,UAV_ATTITUDE,3700,0.020869139581918,0.012602753005921001,0.29633745551109303,0.000792938284575,-0.00046007102355300004,-0.000167900405358,,,,,,,,
97,GCS_ATTITUDE,3700,-0.023635823279619002,0.12436471879482201,-0.12298381328582701,0.001196523196995,0.0011343109654260001,0.001214612275362,,,,,,,,
98,UAV_ATTITUDE,3800,0.020839765667915,0.012533156201243002,0.29630529880523604,-0.000885956920683,0.00021640944760200001,8.391862502321602e-05,,,,,,,,
99,GCS_ATTITUDE,3800,-0.023640766739845002,0.124374315142631,-0.12293698638677501,0.0007341876626010001,-0.000807827804237,0.000584351306315,,,,,,,,
100,UAV_GLOBAL_POSITION_INT,3803,,,,,,,427246746.0,-844808029.0,274080.0,2144.0,0.0,-1.0,0.0,1697.0
101,UAV_ATTITUDE,3900,0.020874667912721002,0.012463222257792,0.29633432626724204,0.000759232789278,0.0007676313398400001,0.000128191895782,,,,,,,,
102,GCS_ATTITUDE,3900,-0.023700043559074003,0.124376729130744,-0.122994728386402,-0.0008069882169360001,-2.175569534301757e-05,0.000172163709066,,,,,,,,
103,GCS_GLOBAL_POSITION_INT,3934,,,,,,,427245966.0,-844808906.0,274420.0,2484.0,1.0,0.0,1.0,35296.0
104,UAV_ATTITUDE,4000,0.020880583673715,0.012400599196553001,0.296339064836502,-0.000727453269064,-0.00032448116689900004,0.00013027637032700002,,,,,,,,
105,GCS_ATTITUDE,4000,-0.023736603558063,0.12432891875505402,-0.123027980327606,-0.000889198854565,-0.001067630713805,-0.00047943065874200006,,,,,,,,
106,UAV_ATTITUDE,4100,0.020883794873952,0.012270515784621001,0.296411424875259,0.0008877990767350001,-0.000692393165081,0.0023772318381810004,,,,,,,,
107,GCS_ATTITUDE,4100,-0.023779297247529002,0.12419907003641101,-0.123052306473255,2.7338974177837375e-05,-0.001622539944946,0.001217668876051,,,,,,,,
108,UAV_GLOBAL_POSITION_INT,4136,,,,,,,427246746.0,-844808030.0,274080.0,2142.0,0.0,0.0,0.0,1698.0
109,UAV_ATTITUDE,4200,0.020833007991313,0.012366716749966,0.29640078544616705,-0.000911250710487,0.00034518458414800005,0.000563779554795,,,,,,,,
110,GCS_ATTITUDE,4200,-0.023849233984947003,0.12424955517053601,-0.123110629618167,-0.0002863695845,0.00016561802476600001,0.00045013119233700005,,,,,,,,
111,GCS_GLOBAL_POSITION_INT,4268,,,,,,,427245968.0,-844808907.0,274420.0,2485.0,0.0,0.0,1.0,35295.0
112,GCS_ATTITUDE,4300,-0.023879718035459,0.12435227632522501,-0.12318138033151602,-0.0010408023372290001,0.001400107750669,-0.0008729216060600001,,,,,,,,
113,UAV_ATTITUDE,4300,0.020744562149047,0.012482854537665001,0.29643228650093,-0.000586769543588,0.00040360528510000005,0.0009684710530560001,,,,,,,,
114,GCS_ATTITUDE,4400,-0.023937985301017,0.12459751218557301,-0.123165324330329,0.000369765795767,0.0016758290585130002,0.0013865873916070002,,,,,,,,
115,UAV_ATTITUDE,4400,0.020711433142423002,0.012512887828052,0.296464383602142,-0.000995936803519,-0.000515682389959,0.000569007883314,,,,,,,,
116,UAV_GLOBAL_POSITION_INT,4468,,,,,,,427246744.0,-844808032.0,274070.0,2136.0,0.0,-1.0,1.0,1698.0
117,GCS_ATTITUDE,4500,-0.023988867178559,0.12479827553033801,-0.12322204560041401,0.00014940742403200002,0.000540463952347,0.000148359977174,,,,,,,,
118,UAV_ATTITUDE,4500,0.020628083497285003,0.012517480179667001,0.29645812511444003,-0.000121467746794,-0.000125259393826,-0.00027813040651300004,,,,,,,,
119,GCS_GLOBAL_POSITION_INT,4600,,,,,,,427245967.0,-844808908.0,274420.0,2480.0,-1.0,0.0,1.0,35298.0
120,UAV_ATTITUDE,4600,0.020577263087034,0.0124441832304,0.296493053436279,0.0009777909144750001,-0.00099095958285,0.0017160729039460002,,,,,,,,
121,GCS_ATTITUDE,4603,-0.023934088647365,0.12596438825130402,-0.12254618108272501,0.000809174031019,0.011137284338474001,0.0029637415427710002,,,,,,,,
122,UAV_ATTITUDE,4700,0.020589187741279002,0.012369669042527,0.296531707048416,-2.654548734426498e-05,0.000305014546029,0.00021418073447400002,,,,,,,,
123,GCS_ATTITUDE,4700,-0.024062097072601003,0.125045090913772,-0.123392224311828,0.001064959913492,-0.022591177374124003,-0.008523635566234,,,,,,,,
124,GCS_ATTITUDE,4800,-0.023956600576639002,0.123892903327941,-0.12236519157886501,0.0005772486329070001,0.000728146289475,0.020437724888324002,,,,,,,,
125,UAV_ATTITUDE,4800,0.020584288984537003,0.012358445674180001,0.296639144420623,-0.0020315321162340002,0.0005287100793790001,0.000613942393101,,,,,,,,
126,UAV_GLOBAL_POSITION_INT,4803,,,,,,,427246743.0,-844808033.0,274070.0,2135.0,0.0,-1.0,1.0,1699.0
127,UAV_ATTITUDE,4900,0.020552966743707,0.012422807514667001,0.296681761741638,-0.000344690866768,0.00030389614403200004,0.0009463985916220001,,,,,,,,
128,GCS_ATTITUDE,4900,-0.024322230368852,0.125682845711708,-0.123034343123435,-0.0013364898040890002,0.008441221900284,-0.021142520010471,,,,,,,,
129,GCS_GLOBAL_POSITION_INT,4933,,,,,,,427245969.0,-844808908.0,274410.0,2476.0,-1.0,0.0,1.0,35294.0
130,UAV_ATTITUDE,5000,0.020610921084880003,0.012523278594017001,0.296746969223022,-0.00030624307692000003,0.001101108966395,0.00010120292427000001,,,,,,,,
131,GCS_ATTITUDE,5000,-0.023971483111381003,0.126004695892333,-0.122404851019382,-0.0020745862275360002,0.014224922284483,0.013527324423193002,,,,,,,,
132,GCS_ATTITUDE,5100,-0.024786360561847003,0.12442795932292901,-0.12180551141500401,-0.020038124173879002,-0.09468460828065801,-0.030635785311460002,,,,,,,,
133,UAV_ATTITUDE,5100,0.020567491650581003,0.012492653913795001,0.296778798103332,-0.000317707657814,0.0007429950637740001,0.0009439135319550001,,,,,,,,
134,UAV_GLOBAL_POSITION_INT,5134,,,,,,,427246741.0,-844808034.0,274060.0,2126.0,0.0,-1.0,1.0,1700.0
135,GCS_ATTITUDE,5200,-0.023638943210244002,0.118308186531066,-0.130138054490089,0.026791576296091003,-0.032053228467702005,-0.055079486221075,,,,,,,,
136,UAV_ATTITUDE,5200,0.020467430353164003,0.012484693899750002,0.29681420326232905,-0.0008920039981600001,-0.00031094136647800004,0.0009513235418120001,,,,,,,,
137,GCS_GLOBAL_POSITION_INT,5266,,,,,,,427245969.0,-844808909.0,274420.0,2486.0,2.0,-3.0,-24.0,35243.0
138,UAV_ATTITUDE,5300,0.020431719720363003,0.012479744851589002,0.296805351972579,-0.000220522284507,0.00026022293604900003,0.0006116487202230001,,,,,,,,
139,GCS_ATTITUDE,5301,-0.015747187659144003,0.11175090074539101,-0.132980212569236,0.046732135117053,-0.084130391478538,-0.022060714662075,,,,,,,,
140,UAV_ATTITUDE,5400,0.020374309271574003,0.012564717791974002,0.29675218462944003,-0.0010113026946780002,-0.000788897974416,0.001225541695021,,,,,,,,
141,GCS_ATTITUDE,5400,-0.017650958150625,0.10373587161302501,-0.13739785552024802,-0.06576929986476801,-0.068860486149787,-0.08382262289524,,,,,,,,
142,UAV_GLOBAL_POSITION_INT,5468,,,,,,,427246739.0,-844808035.0,274060.0,2124.0,-1.0,-1.0,1.0,1700.0
143,UAV_ATTITUDE,5500,0.020337015390396,0.012567559257149,0.29680213332176203,-0.000647294335067,-0.000344140222296,0.0005013509071430001,,,,,,,,
144,GCS_ATTITUDE,5500,-0.024009220302104003,0.09828893095254801,-0.151059731841087,-0.038589723408222004,-0.058888044208288005,-0.165786668658256,,,,,,,,
145,GCS_GLOBAL_POSITION_INT,5600,,,,,,,427245971.0,-844808908.0,274580.0,2648.0,2.0,-4.0,-56.0,35035.0
146,UAV_ATTITUDE,5600,0.020487274974584,0.014717279002070002,0.29427459836006103,0.005406861193478001,0.055526811629533004,-0.063903860747814,,,,,,,,
147,GCS_ATTITUDE,5603,-0.027164550498127,0.088077053427696,-0.169092044234275,0.020990328863263002,-0.12969639897346402,-0.18457828462123801,,,,,,,,
148,GCS_ATTITUDE,5700,-0.019645418971776,0.07215654850006101,-0.19165131449699402,0.15043929219245902,-0.18720754981040902,-0.258624762296676,,,,,,,,
149,UAV_ATTITUDE,5700,0.021041944622993,0.019006729125976,0.291979253292083,0.009923990815877,0.027802038937807003,0.006002011708915,,,,,,,,
150,GCS_ATTITUDE,5800,0.000968284904956,0.05237094312906201,-0.21583281457424103,0.23948490619659402,-0.203741461038589,-0.19724015891551902,,,,,,,,
151,UAV_GLOBAL_POSITION_INT,5801,,,,,,,427246736.0,-844808036.0,274060.0,2124.0,-1.0,-2.0,1.0,1656.0
152,UAV_ATTITUDE,5803,0.021042067557573003,0.020694492384791003,0.289005070924758,-0.0049661225639280005,0.0067670363932840006,-0.019950713962316003,,,,,,,,
153,GCS_ATTITUDE,5900,0.015650529414415002,0.036332596093416006,-0.23311473429203003,0.06099995970726001,-0.137049332261085,-0.157891035079956,,,,,,,,
154,UAV_ATTITUDE,5900,0.020877543836832,0.020974878221750003,0.289999842643737,-0.008044567890465001,-0.008784402161836001,0.005187249276787,,,,,,,,
155,GCS_GLOBAL_POSITION_INT,5934,,,,,,,427245972.0,-844808907.0,274850.0,2915.0,0.0,-2.0,-89.0,34635.0
156,GCS_ATTITUDE,6000,0.009103387594223,0.027818458154797002,-0.250890105962753,-0.097632192075252,-0.06740165501832901,-0.194258883595466,,,,,,,,
157,UAV_ATTITUDE,6000,0.021201703697443,0.021673498675227002,0.29175561666488603,-0.010204796679317,0.017471633851528,0.032642759382724006,,,,,,,,
158,GCS_ATTITUDE,6100,-0.000732813030481,0.024931341409683002,-0.27104246616363503,-0.122363269329071,-0.028690146282315,-0.18214514851570102,,,,,,,,
159,UAV_ATTITUDE,6100,0.021372675895690002,0.020501900464296,0.29451864957809404,0.017748121172189,-0.035998661071062005,-0.011709633283317,,,,,,,,
160,UAV_GLOBAL_POSITION_INT,6134,,,,,,,427246733.0,-844808036.0,274060.0,2124.0,0.0,-2.0,0.0,1680.0
161,GCS_ATTITUDE,6200,-0.015393452718853002,0.022632960230112003,-0.28186058998107905,-0.17546251416206302,-0.022342275828123002,-0.05344870314002,,,,,,,,
162,UAV_ATTITUDE,6200,0.019830394536256003,0.016885315999388,0.291877001523971,-0.010934188961982,-0.056255608797073,-0.005219587124884,,,,,,,,
163,GCS_GLOBAL_POSITION_INT,6266,,,,,,,427245972.0,-844808905.0,275100.0,3164.0,-11.0,1.0,-39.0,34384.0
164,GCS_ATTITUDE,6300,-0.037701576948165005,0.021118951961398003,-0.280507266521453,-0.23503810167312603,-0.013171957805752001,0.05309416353702501,,,,,,,,
165,UAV_ATTITUDE,6300,0.011624965816736001,0.010029234923422,0.293858677148818,-0.113363310694694,-0.07878545671701401,0.010623076930642001,,,,,,,,
166,GCS_ATTITUDE,6400,-0.057649806141853006,0.018553309142589,-0.271195918321609,-0.18099296092987002,-0.040695860981941,0.10983175039291301,,,,,,,,
167,UAV_ATTITUDE,6400,0.0015416145324700001,0.0028381468728180003,0.289022356271743,-0.12698933482170102,-0.044916443526744,-0.042898096144199004,,,,,,,,
168,UAV_GLOBAL_POSITION_INT,6466,,,,,,,427246732.0,-844808038.0,274090.0,2153.0,6.0,-13.0,-19.0,1651.0
169,GCS_ATTITUDE,6500,-0.071477562189102,0.011315578594803002,-0.25638988614082303,-0.10052917152643201,-0.09924839437007901,0.17301857471466,,,,,,,,
170,UAV_ATTITUDE,6500,-0.007167574018239001,-0.000866887392476,0.288641542196273,-0.052585564553737,-0.033247608691453004,0.013651999644935001,,,,,,,,
171,GCS_GLOBAL_POSITION_INT,6598,,,,,,,427245966.0,-844808903.0,275150.0,3214.0,-38.0,-7.0,-4.0,34663.0
172,UAV_ATTITUDE,6600,-0.010424802079796,-0.009706184267997001,0.29460620880126903,-0.033862799406051004,-0.151862114667892,0.08247876167297301,,,,,,,,
173,GCS_ATTITUDE,6600,-0.082765370607376,-0.000467328121885,-0.23279862105846402,-0.157476782798767,-0.142422437667846,0.26000192761421204,,,,,,,,
174,UAV_ATTITUDE,6700,-0.016983371227979,-0.034736890345811004,0.30231145024299605,-0.11035382002592001,-0.28772589564323403,0.06832755357027001,,,,,,,,
175,GCS_ATTITUDE,6700,-0.113999061286449,-0.014206172898411001,-0.20623257756233201,-0.40127342939376803,-0.15943861007690402,0.24756693840026803,,,,,,,,
176,UAV_GLOBAL_POSITION_INT,6800,,,,,,,427246733.0,-844808043.0,274270.0,2339.0,3.0,-3.0,-74.0,1835.0
177,GCS_ATTITUDE,6800,-0.157088249921798,-0.027147939428687002,-0.181554347276687,-0.430192083120346,-0.14773082733154203,0.21439228951931,,,,,,,,
178,UAV_ATTITUDE,6803,-0.045384120196104,-0.092131786048412,0.32087305188179005,-0.321625709533691,-0.6851505637168881,0.24871887266635803,,,,,,,,
179,UAV_ATTITUDE,6900,-0.076830618083477,-0.150183737277984,0.338973939418792,-0.315887093544006,-0.602252423763275,0.067497931420803,,,,,,,,
180,GCS_ATTITUDE,6900,-0.194871068000793,-0.03730871155858,-0.16260989010334,-0.29495683312416004,-0.113852314651012,0.147480249404907,,,,,,,,
181,GCS_GLOBAL_POSITION_INT,6931,,,,,,,427245950.0,-844808903.0,275170.0,3233.0,-69.0,-16.0,-4.0,35093.0
182,UAV_ATTITUDE,7000,-0.104861788451671,-0.18895521759986803,0.33229574561119,-0.258671969175338,-0.149583965539932,-0.15720401704311301,,,,,,,,
183,GCS_ATTITUDE,7000,-0.20805087685585003,-0.043927453458309,-0.15109759569168002,-0.027063325047492003,-0.06765197962522501,0.06845661252737001,,,,,,,,
184,UAV_ATTITUDE,7100,-0.125967592000961,-0.19044376909732802,0.30769234895706105,-0.25399401783943104,0.049284588545560004,-0.262126445770263,,,,,,,,
185,GCS_ATTITUDE,7100,-0.198298335075378,-0.045263838022947006,-0.14639574289321902,0.09352646768093101,0.00336167612113,0.039247147738933,,,,,,,,
186,UAV_GLOBAL_POSITION_INT,7134,,,,,,,427246734.0,-844808045.0,274600.0,2665.0,16.0,-18.0,-106.0,1714.0
187,UAV_ATTITUDE,7200,-0.128645926713943,-0.17479659616947102,0.285084992647171,0.069786973297595,0.26657280325889504,-0.16389225423336,,,,,,,,
188,GCS_ATTITUDE,7200,-0.20495483279228202,-0.040660414844751004,-0.14202553033828702,-0.104265287518501,0.058202486485242004,0.088414959609508,,,,,,,,
189,GCS_GLOBAL_POSITION_INT,7266,,,,,,,427245924.0,-844808911.0,275170.0,3239.0,-79.0,-15.0,6.0,35244.0
190,UAV_ATTITUDE,7300,-0.10741230100393201,-0.139445975422859,0.26981315016746504,0.24156406521797102,0.44273558259010304,-0.08801514655351601,,,,,,,,
191,GCS_ATTITUDE,7300,-0.207702532410621,-0.028983656316995003,-0.124818906188011,0.022908668965101003,0.09741745889186801,0.22906576097011502,,,,,,,,
192,UAV_ATTITUDE,7400,-0.074852637946605,-0.08228627592325201,0.256130844354629,0.352273672819137,0.638765513896942,-0.10027660429477601,,,,,,,,
193,GCS_ATTITUDE,7400,-0.20362049341201702,-0.012681786902248,-0.10447317361831601,0.031377419829368,0.137447729706764,0.21331213414669,,,,,,,,
194,UAV_GLOBAL_POSITION_INT,7466,,,,,,,427246739.0,-844808050.0,275020.0,3089.0,10.0,-15.0,-118.0,1445.0
195,UAV_ATTITUDE,7500,-0.03903018310666,-0.015085274353623002,0.25361394882202104,0.34867367148399303,0.69323444366455,0.060611970722675004,,,,,,,,
196,GCS_ATTITUDE,7500,-0.204743608832359,0.004937495570629001,-0.08694676309823901,-0.018530609086155,0.14123757183551702,0.21129186451435,,,,,,,,
197,GCS_GLOBAL_POSITION_INT,7598,,,,,,,427245895.0,-844808912.0,275130.0,3193.0,-105.0,-6.0,19.0,35614.0
198,UAV_ATTITUDE,7600,-0.010805053636431,0.052397370338439005,0.27056908607482905,0.222797513008117,0.6432865858078001,0.23358978331089003,,,,,,,,
199,GCS_ATTITUDE,7600,-0.205862507224082,0.020780935883522002,-0.066850334405899,-0.008493550121784,0.10491921007633201,0.22586634755134502,,,,,,,,
200,UAV_ATTITUDE,7700,0.001772385090589,0.09638889133930201,0.29825264215469305,-0.014015017077326001,0.34906744956970204,0.317131102085113,,,,,,,,
201,GCS_ATTITUDE,7701,-0.20428317785263,0.029195627197623003,-0.048689324408769004,0.036734577268362004,0.008525682613253,0.16550461947917902,,,,,,,,
202,UAV_GLOBAL_POSITION_INT,7798,,,,,,,427246735.0,-844808054.0,275290.0,3354.0,-17.0,-19.0,-18.0,1902.0
203,UAV_ATTITUDE,7800,-0.022782608866691003,0.12584286928176802,0.332953333854675,-0.464406132698059,0.293978691101074,0.30399557948112405,,,,,,,,
204,GCS_ATTITUDE,7800,-0.19222442805767,0.026599198579788003,-0.034623142331838004,0.137820929288864,-0.076701648533344,0.13138879835605602,,,,,,,,
205,UAV_ATTITUDE,7900,-0.07869940996170001,0.159891679883003,0.360409826040267,-0.618381977081298,0.38321661949157704,0.29631888866424505,,,,,,,,
206,GCS_ATTITUDE,7900,-0.18573148548603002,0.017365442588925,-0.019175926223397,0.014341489411890002,-0.132264256477355,0.14573848247528,,,,,,,,
207,GCS_GLOBAL_POSITION_INT,7931,,,,,,,427245866.0,-844808914.0,275120.0,3181.0,-96.0,-15.0,2.0,35921.0
208,UAV_ATTITUDE,8000,-0.12604832649230902,0.20136150717735202,0.40327373147010803,-0.47494515776634205,0.346840471029281,0.5791943073272701,,,,,,,,
209,GCS_ATTITUDE,8000,-0.18612758815288502,0.004108070395886,-0.001859146170318,-0.039897099137306005,-0.15956842899322501,0.14348819851875302,,,,,,,,
210,UAV_ATTITUDE,8100,-0.143436759710311,0.23018954694271002,0.47561505436897206,-0.24898862838745103,0.09028295427560801,0.79987895488739,,,,,,,,
211,GCS_ATTITUDE,8100,-0.195653557777404,-0.008748456835746,0.011211268603801,-0.11002565920352901,-0.129891157150268,0.078699849545955,,,,,,,,
212,UAV_GLOBAL_POSITION_INT,8131,,,,,,,427246722.0,-844808072.0,275280.0,3342.0,-35.0,-49.0,-9.0,2867.0
213,UAV_ATTITUDE,8200,-0.130105838179588,0.234392836689949,0.531566321849823,0.156059235334396,-0.026442861184477,0.278884440660476,,,,,,,,
214,GCS_ATTITUDE,8200,-0.21135227382183003,-0.019661482423543,0.011750404722988,-0.19230866432189903,-0.090542055666446,-0.069978453218936,,,,,,,,
215,GCS_GLOBAL_POSITION_INT,8263,,,,,,,427245841.0,-844808918.0,275130.0,3193.0,-100.0,-21.0,7.0,29.0
216,UAV_ATTITUDE,8300,-0.11657751351594901,0.22327318787574701,0.564746081829071,0.037287607789039,-0.18989220261573703,0.34214985370635903,,,,,,,,
217,GCS_ATTITUDE,8300,-0.222722694277763,-0.031015550717711,-0.0008060064865270001,-0.030860520899295002,-0.087343275547027,-0.18373054265975902,,,,,,,,
218,GCS_ATTITUDE,8400,-0.20116497576236703,-0.042056158185005,-0.015191084705293002,0.297901272773742,-0.08148793876171101,-0.12585543096065502,,,,,,,,
219,UAV_ATTITUDE,8400,-0.10913518071174601,0.213855952024459,0.6115289330482481,-0.08772015571594201,-0.093816496431827,0.5387416481971741,,,,,,,,
220,UAV_GLOBAL_POSITION_INT,8466,,,,,,,427246693.0,-844808099.0,275280.0,3348.0,-74.0,-52.0,1.0,3732.0
221,GCS_ATTITUDE,8500,-0.184550762176513,-0.051671367138624004,-0.026904026046395003,0.07904602587223,-0.067072138190269,-0.125950783491134,,,,,,,,
222,UAV_ATTITUDE,8500,-0.113360963761806,0.200115472078323,0.6747726798057551,-0.23406779766082703,-0.259589165449142,0.6341360807418821,,,,,,,,
223,GCS_GLOBAL_POSITION_INT,8596,,,,,,,427245817.0,-844808921.0,275160.0,3221.0,-81.0,-4.0,3.0,35798.0
224,UAV_ATTITUDE,8600,-0.11984596401453002,0.17068086564540802,0.7457507252693171,-0.139152467250823,-0.380829811096191,0.7075119614601131,,,,,,,,
225,GCS_ATTITUDE,8600,-0.18159006536006903,-0.057850800454616005,-0.035802397876977005,0.0021133469417690003,-0.031723592430353005,-0.08482860028743701,,,,,,,,
226,GCS_ATTITUDE,8700,-0.181849345564842,-0.059804819524288004,-0.043606299906969,0.000459599308669,0.017991585657,-0.07298459112644101,,,,,,,,
227,UAV_ATTITUDE,8700,-0.08688698709011,0.15795250236988,0.8290991187095641,0.379280269145965,-0.05750810354948,0.8569915890693661,,,,,,,,
228,UAV_GLOBAL_POSITION_INT,8798,,,,,,,427246659.0,-844808113.0,275230.0,3296.0,-121.0,-18.0,17.0,5237.0
229,UAV_ATTITUDE,8800,-0.027883218601346002,0.162697553634643,0.9164514541625971,0.47599527239799505,0.048408240079879004,0.860702872276306,,,,,,,,
230,GCS_ATTITUDE,8800,-0.17808750271797102,-0.055539119988679005,-0.048289462924003004,0.081233866512775,0.056192435324192005,-0.017876924946904002,,,,,,,,
231,GCS_ATTITUDE,8900,-0.169297397136688,-0.053124222904443005,-0.049241498112678,0.116197295486927,0.007244024425745001,0.005414649378508001,,,,,,,,
232,UAV_ATTITUDE,8900,0.027883697301149,0.15578971803188302,1.002838492393493,0.340480297803878,-0.12228251993656102,0.872735321521759,,,,,,,,
233,GCS_GLOBAL_POSITION_INT,8931,,,,,,,427245797.0,-844808914.0,275160.0,3227.0,-68.0,15.0,-3.0,35721.0
234,GCS_ATTITUDE,9000,-0.157408744096755,-0.055686172097921004,-0.045700248330831,0.10955224931240001,-0.050079505890607,0.058256804943084,,,,,,,,
235,UAV_ATTITUDE,9000,0.065831542015075,0.12440145015716501,1.085806727409362,0.29137554764747603,-0.25449508428573603,0.813481152057647,,,,,,,,
236,UAV_ATTITUDE,9100,0.107436329126358,0.09460100531578,1.145392417907714,0.321004092693328,-0.19865642488002702,0.5059772729873651,,,,,,,,
237,GCS_ATTITUDE,9100,-0.15297573804855302,-0.062384229153394005,-0.034269258379936,-0.009200730361044001,-0.10157585144042901,0.132254898548126,,,,,,,,
238,UAV_GLOBAL_POSITION_INT,9131,,,,,,,427246617.0,-844808111.0,275180.0,3248.0,-111.0,5.0,-5.0,6621.0
239,GCS_ATTITUDE,9200,-0.158379927277565,-0.073223382234573,-0.017610352486371002,-0.030523590743541003,-0.13542354106903,0.166697904467582,,,,,,,,
240,UAV_ATTITUDE,9200,0.12667094171047202,0.072743520140647,1.1591516733169551,0.07767805457115101,-0.22957402467727603,-0.053903650492429005,,,,,,,,
241,GCS_GLOBAL_POSITION_INT,9263,,,,,,,427245788.0,-844808904.0,275170.0,3238.0,-13.0,14.0,0.0,35963.0
242,GCS_ATTITUDE,9300,-0.15912115573883,-0.08435728400945601,-0.000948735687416,0.004085129126906,-0.117583021521568,0.135194957256317,,,,,,,,
243,UAV_ATTITUDE,9300,0.119206756353378,0.048344731330871006,1.109543085098266,-0.12393886595964401,-0.341335952281951,-0.659539699554443,,,,,,,,
244,GCS_ATTITUDE,9400,-0.16350935399532301,-0.091924041509628,0.008478560484945,-0.06995780766010201,-0.062858901917934,0.055851973593235,,,,,,,,
245,UAV_ATTITUDE,9400,0.09737618267536101,0.032252453267574005,1.010669231414795,-0.182584330439567,-0.24145781993865903,-1.121420264244079,,,,,,,,
246,UAV_GLOBAL_POSITION_INT,9463,,,,,,,427246591.0,-844808099.0,275230.0,3292.0,-60.0,29.0,-8.0,5330.0
247,UAV_ATTITUDE,9500,0.075002431869506,0.027117945253849002,0.8760151863098141,-0.20089735090732502,-0.232920363545417,-1.427747845649719,,,,,,,,
248,GCS_ATTITUDE,9500,-0.174790576100349,-0.094973407685756,0.009416784159839,-0.10758563876152001,-0.009899001568555001,-0.0145631628111,,,,,,,,
249,GCS_GLOBAL_POSITION_INT,9596,,,,,,,427245797.0,-844808898.0,275170.0,3239.0,32.0,11.0,1.0,30.0
250,UAV_ATTITUDE,9600,0.058952353894710006,0.015916315838694,0.717451453208923,-0.07638177275657601,-0.24463404715061102,-1.637264013290405,,,,,,,,
251,GCS_ATTITUDE,9600,-0.18357299268245603,-0.09409511089324901,0.005039494484663,-0.064678512513637,0.031152110546827004,-0.039353057742118,,,,,,,,
252,GCS_ATTITUDE,9700,-0.189215689897537,-0.091031849384307,0.0015258319908750002,-0.084329389035701,0.036119677126407006,-0.015709986910223,,,,,,,,
253,UAV_ATTITUDE,9700,0.053819015622138006,0.010845248587429001,0.5411800742149351,0.09550728648900901,-0.18928837776184002,-1.836942315101623,,,,,,,,
254,UAV_GLOBAL_POSITION_INT,9796,,,,,,,427246589.0,-844808079.0,275240.0,3305.0,2.0,63.0,6.0,2048.0
255,UAV_ATTITUDE,9800,0.06909084320068301,0.013134925626218001,0.347216129302978,0.203047260642051,-0.105313681066036,-1.970722913742065,,,,,,,,
256,GCS_ATTITUDE,9800,-0.200746476650238,-0.08825936913490201,-0.00017443529213700002,-0.10820911824703201,0.030376745387911002,0.002951089991256,,,,,,,,
257,GCS_ATTITUDE,9900,-0.20384518802165902,-0.08388497680425601,-0.0020101510453960003,0.017875198274850002,0.064784541726112,-0.022297577932476,,,,,,,,
258,UAV_ATTITUDE,9900,0.09104161709547001,0.041420292109251,0.14559486508369401,0.278506964445114,0.177982524037361,-2.048441886901855,,,,,,,,
259,GCS_GLOBAL_POSITION_INT,9928,,,,,,,427245815.0,-844808897.0,275160.0,3226.0,63.0,8.0,6.0,35979.0
260,GCS_ATTITUDE,10000,-0.200785279273986,-0.074764877557754,-0.012270820327103001,0.0030555808916680003,0.133150070905685,-0.10389191657304701,,,,,,,,
261,UAV_ATTITUDE,10000,0.100622326135635,0.095240823924541,-0.054229527711868,0.17411531507968903,0.291372150182724,-1.995312929153442,,,,,,,,
262,GCS_ATTITUDE,10100,-0.204368278384208,-0.06139478459954201,-0.027164777740836,-0.04683319851756,0.16132725775241802,-0.10995314270257901,,,,,,,,
263,UAV_ATTITUDE,10100,0.08372062444686801,0.13189074397087,-0.23879684507846802,-0.050728932023048005,-0.016651730984449,-1.731933116912841,,,,,,,,
264,UAV_GLOBAL_POSITION_INT,10131,,,,,,,427246609.0,-844808051.0,275180.0,3249.0,56.0,74.0,14.0,34345.0
265,GCS_ATTITUDE,10200,-0.20867209136486,-0.043238420039415006,-0.040655698627233006,-0.033947765827178004,0.22781611979007702,-0.07919627428054801,,,,,,,,
266,UAV_ATTITUDE,10200,0.056049317121505,0.11763362586498201,-0.398919612169265,-0.083269238471984,-0.42793267965316706,-1.421355009078979,,,,,,,,
267,GCS_GLOBAL_POSITION_INT,10261,,,,,,,427245835.0,-844808898.0,275180.0,3243.0,55.0,12.0,-2.0,35732.0
268,UAV_ATTITUDE,10300,0.038505263626575005,0.078715428709983,-0.5226897597312921,-0.026234731078147003,-0.44997337460517806,-1.032313227653503,,,,,,,,
269,GCS_ATTITUDE,10300,-0.204651325941085,-0.019910968840122,-0.049613904207944,0.07464192807674401,0.247847512364387,-0.013855627737939,,,,,,,,
270,GCS_ATTITUDE,10400,-0.20229147374629902,0.0031707459129390004,-0.054977878928184,-0.014103926718235,0.21842136979103002,-0.008720350451767,,,,,,,,
271,UAV_ATTITUDE,10400,0.035807602107524004,0.054872032254934006,-0.61187720298767,0.08634752780199001,-0.182657837867736,-0.767612814903259,,,,,,,,
272,UAV_GLOBAL_POSITION_INT,10463,,,,,,,427246638.0,-844808019.0,275180.0,3249.0,64.0,94.0,-14.0,32240.0
273,UAV_ATTITUDE,10500,0.050645604729652,0.060828316956758006,-0.678898513317108,0.162284761667251,0.113732993602752,-0.595874786376953,,,,,,,,
274,GCS_ATTITUDE,10500,-0.199955940246582,0.020040325820446,-0.056797683238983,0.074149034917354,0.129615068435668,0.051780194044113007,,,,,,,,
275,GCS_GLOBAL_POSITION_INT,10596,,,,,,,427245851.0,-844808896.0,275200.0,3262.0,70.0,13.0,6.0,35724.0
276,GCS_ATTITUDE,10600,-0.195218667387962,0.028682634234428003,-0.047520831227302,0.0026577655225990004,0.029723413288593,0.13617238402366602,,,,,,,,
277,UAV_ATTITUDE,10600,0.049658916890621005,0.07832686603069301,-0.733725726604461,-0.048267286270856004,0.116837196052074,-0.527158200740814,,,,,,,,
278,UAV_ATTITUDE,10700,0.026360347867012003,0.09059494733810401,-0.7821434140205381,-0.27328267693519503,0.08608104288578,-0.45326498150825506,,,,,,,,
279,GCS_ATTITUDE,10700,-0.198120683431625,0.029342940077185003,-0.031322162598371,-0.027314729988574003,-0.046618539839982,0.181113481521606,,,,,,,,
280,UAV_GLOBAL_POSITION_INT,10796,,,,,,,427246660.0,-844807982.0,275180.0,3248.0,54.0,117.0,17.0,31287.0
281,UAV_ATTITUDE,10800,0.009570870548486,0.103856764733791,-0.8249260783195491,-0.026274051517248,0.111108906567096,-0.429577767848968,,,,,,,,
282,GCS_ATTITUDE,10800,-0.19081613421440102,0.028835298493504004,-0.010615059174597001,0.120192326605319,-0.017867187038064003,0.22431147098541201,,,,,,,,
283,UAV_ATTITUDE,10900,0.0021318122744560003,0.10625404864549601,-0.864697933197021,-0.012799873016774,-0.07871359586715601,-0.36272239685058505,,,,,,,,
284,GCS_ATTITUDE,10900,-0.183739840984344,0.033726263791322,0.003958612214773,0.020817838609218,0.057885065674781,0.093037575483322,,,,,,,,
285,GCS_GLOBAL_POSITION_INT,10928,,,,,,,427245873.0,-844808893.0,275220.0,3286.0,56.0,5.0,-10.0,29.0
286,UAV_ATTITUDE,11000,-0.006020763888955,0.089994117617607,-0.899898767471313,-0.07408895343542,-0.21651613712310702,-0.345600396394729,,,,,,,,
287,GCS_ATTITUDE,11000,-0.185725048184394,0.043188657611608006,0.006064899265766001,-0.023196198046207,0.09970522671937901,0.034449484199285,,,,,,,,
288,UAV_ATTITUDE,11100,-0.010868763551115001,0.07761260867118801,-0.9333807826042171,0.019803501665592003,-0.087642565369606,-0.33687400817871005,,,,,,,,
289,GCS_ATTITUDE,11100,-0.18618778884410803,0.05173922330141,0.010184390470385002,-0.005249322857707001,0.059951588511466,0.06790168583393001,,,,,,,,
290,UAV_GLOBAL_POSITION_INT,11128,,,,,,,427246679.0,-844807934.0,275160.0,3221.0,71.0,113.0,-17.0,30597.0
291,GCS_ATTITUDE,11200,-0.18765123188495603,0.054976675659418,0.014807878062129002,-0.032113138586282,0.0017548250034450001,0.032921414822340005,,,,,,,,
292,UAV_ATTITUDE,11200,-0.007908677682280001,0.078504614531993,-0.966712951660156,0.06752441823482501,0.043494701385498005,-0.318098247051239,,,,,,,,
293,GCS_GLOBAL_POSITION_INT,11261,,,,,,,427245890.0,-844808895.0,275240.0,3301.0,59.0,-10.0,0.0,93.0
294,GCS_ATTITUDE,11300,-0.19328029453754403,0.050886798650026,0.017929755151271,-0.060924977064132003,-0.078443244099617,0.032455448061227,,,,,,,,
295,UAV_ATTITUDE,11300,-0.005389111116528,0.08045380562543801,-0.9974722862243651,0.005071342922747001,-0.045624256134033,-0.30070784687995905,,,,,,,,
296,GCS_ATTITUDE,11400,-0.195340663194656,0.041325360536575005,0.025972729548811004,0.016932466998696,-0.113295331597328,0.09487915039062501,,,,,,,,
297,UAV_ATTITUDE,11400,-0.016644343733787002,0.06716971099376601,-1.024429440498352,-0.168078735470771,-0.185045093297958,-0.23215064406394903,,,,,,,,
298,UAV_GLOBAL_POSITION_INT,11461,,,,,,,427246699.0,-844807891.0,275130.0,3196.0,83.0,116.0,5.0,30078.0
299,UAV_ATTITUDE,11500,-0.036797314882278005,0.049964606761932005,-1.035999059677124,-0.177934557199478,-0.150688901543617,-0.048331566154956006,,,,,,,,
300,GCS_ATTITUDE,11500,-0.190849289298057,0.033206701278686,0.036722857505083,0.03399035334587,-0.08582635223865501,0.075102232396602,,,,,,,,
301,GCS_GLOBAL_POSITION_INT,11593,,,,,,,427245907.0,-844808898.0,275230.0,3295.0,54.0,-2.0,-3.0,222.0
302,UAV_ATTITUDE,11600,-0.056881833821535006,0.034042913466691,-1.031512379646301,-0.185798451304435,-0.14253407716751101,0.099615104496479,,,,,,,,
303,GCS_ATTITUDE,11600,-0.192240312695503,0.027238661423325,0.038802813738584005,-0.018951179459691003,-0.047264121472835006,-0.021471647545695003,,,,,,,,
304,UAV_ATTITUDE,11700,-0.062994077801704,0.025190584361553,-1.018478512763977,0.011148675344884,-0.029213266447186,0.15039223432540802,,,,,,,,
305,GCS_ATTITUDE,11700,-0.18944834172725603,0.025543462485074,0.035693801939487,0.034117072820663,0.01173126604408,-0.044511944055557,,,,,,,,
306,UAV_GLOBAL_POSITION_INT,11796,,,,,,,427246722.0,-844807850.0,275150.0,3215.0,82.0,118.0,0.0,30255.0
307,GCS_ATTITUDE,11800,-0.186257556080818,0.028525799512863003,0.026526076719164002,0.044127333909273,0.059036139398813005,-0.110893547534942,,,,,,,,
308,UAV_ATTITUDE,11800,-0.05826324969530101,0.031232550740242,-1.001897573471069,0.075999900698661,0.09970235079526901,0.174466729164123,,,,,,,,
309,UAV_ATTITUDE,11900,-0.047641985118389005,0.043840993195772004,-0.988105297088623,0.09449990838766001,0.131410002708435,0.11420515179634001,,,,,,,,
310,GCS_ATTITUDE,11900,-0.181734010577201,0.033643096685409005,0.011068661697208,0.042077708989381006,0.078415229916572,-0.16467913985252303,,,,,,,,
311,GCS_GLOBAL_POSITION_INT,11928,,,,,,,427245921.0,-844808893.0,275240.0,3301.0,43.0,12.0,3.0,35.0
312,UAV_ATTITUDE,12000,-0.044070798903703,0.055812086910009,-0.981613397598266,0.013975241221487002,0.110349029302597,0.041850794106721004,,,,,,,,
313,GCS_ATTITUDE,12000,-0.177850201725959,0.038089573383331,-0.0074431947432450005,0.068930491805076,0.053781822323799,-0.177438169717788,,,,,,,,
314,GCS_ATTITUDE,12100,-0.171603038907051,0.039564125239849,-0.022157803177833002,0.055372402071952,0.020627638325095003,-0.12231102585792501,,,,,,,,
315,UAV_ATTITUDE,12100,-0.042512379586696,0.06274155527353201,-0.982376635074615,0.059652239084243004,0.061211761087179004,-0.006989129818975001,,,,,,,,
316,UAV_GLOBAL_POSITION_INT,12128,,,,,,,427246743.0,-844807807.0,275070.0,3138.0,79.0,118.0,-2.0,30374.0
317,UAV_ATTITUDE,12200,-0.028158962726593004,0.071813307702541,-0.982326626777648,0.18570590019226002,0.052985370159149,-0.028182057663798003,,,,,,,,
318,GCS_ATTITUDE,12200,-0.17159423232078502,0.038638457655906004,-0.031923737376928,-0.041152264922857,-0.0069405175745480005,-0.087084881961345,,,,,,,,
319,GCS_GLOBAL_POSITION_INT,12261,,,,,,,427245933.0,-844808881.0,275230.0,3295.0,46.0,29.0,3.0,35789.0
320,GCS_ATTITUDE,12300,-0.17685656249523102,0.034061037003993,-0.040334977209568,-0.025253970175981,-0.048942826688289004,-0.09631429612636501,,,,,,,,
321,UAV_ATTITUDE,12300,-0.012307615950703002,0.070329003036022,-0.9936196208000181,0.11785408109426401,-0.034657694399356,-0.139519453048706,,,,,,,,
322,GCS_ATTITUDE,12400,-0.179327353835105,0.027832444757223,-0.052048638463020006,-0.042454730719327004,-0.036021627485752,-0.14910751581192,,,,,,,,
323,UAV_ATTITUDE,12400,-0.014308277517557002,0.06617958843708001,-1.003255009651184,-0.108360484242439,-0.067340098321437,-0.046946313232183005,,,,,,,,
324,UAV_GLOBAL_POSITION_INT,12461,,,,,,,427246768.0,-844807769.0,275060.0,3124.0,92.0,92.0,31.0,30255.0
325,UAV_ATTITUDE,12500,-0.024134419858455002,0.048058036714792,-1.000235676765442,-0.07604707777500101,-0.218475952744483,0.084822818636894,,,,,,,,
326,GCS_ATTITUDE,12500,-0.18284071981906802,0.024469139054417003,-0.069836273789405,-0.011327990330755001,0.018369726836681,-0.198290631175041,,,,,,,,
327,GCS_GLOBAL_POSITION_INT,12593,,,,,,,427245945.0,-844808869.0,275250.0,3313.0,28.0,25.0,-2.0,35468.0
328,UAV_ATTITUDE,12600,-0.022428164258599,0.028004659339785003,-0.9854887127876281,-0.035971902310848,-0.18650919198989802,0.15718713402748102,,,,,,,,
329,GCS_ATTITUDE,12600,-0.185471728444099,0.027536537498235,-0.09514177590608501,-0.008095289580523,0.09944202750921201,-0.27955237030982905,,,,,,,,
330,GCS_ATTITUDE,12700,-0.18243071436882002,0.036817967891693004,-0.13013821840286202,0.040778107941150006,0.16272890567779502,-0.367053687572479,,,,,,,,
331,UAV_ATTITUDE,12700,-0.035062845796346005,0.011557809077203001,-0.9609760642051691,-0.12384756654500902,-0.10913123190402901,0.313679814338684,,,,,,,,
332,UAV_GLOBAL_POSITION_INT,12793,,,,,,,427246792.0,-844807735.0,275020.0,3086.0,79.0,94.0,-25.0,30702.0
333,UAV_ATTITUDE,12800,-0.03427692875266,0.011488822288811,-0.9216756820678711,0.058028336614370006,0.04041114076972,0.42192056775093,,,,,,,,
334,GCS_ATTITUDE,12800,-0.186387479305267,0.04766533896327001,-0.17227132618427202,-0.035291820764541,0.16531126201152802,-0.407491236925125,,,,,,,,
335,GCS_ATTITUDE,12900,-0.19147510826587602,0.056330010294914,-0.21370141208171803,-0.035468287765979004,0.137937888503074,-0.39580464363098106,,,,,,,,
336,UAV_ATTITUDE,12900,-0.035273265093564,0.018724324181675002,-0.881976664066314,-0.078743934631347,0.08815502375364301,0.37826552987098605,,,,,,,,
337,GCS_GLOBAL_POSITION_INT,12925,,,,,,,427245945.0,-844808860.0,275260.0,3324.0,-7.0,22.0,6.0,34716.0
338,GCS_ATTITUDE,13000,-0.20061083137989003,0.061389777809381006,-0.25695708394050604,-0.09135686606168701,0.10577566921710901,-0.448480159044265,,,,,,,,
339,UAV_ATTITUDE,13000,-0.050321169197559,0.033121686428785005,-0.8506779670715331,-0.178642213344573,0.17214025557041102,0.28405013680458,,,,,,,,
340,GCS_ATTITUDE,13100,-0.214820742607116,0.06191168352961501,-0.307285577058792,-0.10155259072780601,0.083681151270866,-0.5134427547454831,,,,,,,,
341,UAV_ATTITUDE,13100,-0.06320206820964801,0.054684486240148,-0.8264104723930351,-0.099853470921516,0.21402908861637102,0.22456301748752502,,,,,,,,
342,UAV_GLOBAL_POSITION_INT,13128,,,,,,,427246810.0,-844807695.0,275060.0,3128.0,69.0,108.0,-19.0,31297.0
343,UAV_ATTITUDE,13200,-0.06395763158798201,0.074356377124786,-0.8057999610900871,0.034365028142929,0.176202699542045,0.21395108103752103,,,,,,,,
344,GCS_ATTITUDE,13200,-0.222058206796646,0.060587722808122,-0.356075793504714,-0.00019650813192100003,0.06788125634193401,-0.44681131839752203,,,,,,,,
345,GCS_GLOBAL_POSITION_INT,13258,,,,,,,427245936.0,-844808843.0,275220.0,3288.0,-30.0,39.0,4.0,33828.0
346,GCS_ATTITUDE,13300,-0.22206540405750202,0.057113148272037007,-0.39546117186546303,-0.00670101121068,0.012776314280927,-0.38670077919960005,,,,,,,,
347,UAV_ATTITUDE,13300,-0.046220883727073,0.092581920325756,-0.7856835126876831,0.24934752285480502,0.17030851542949602,0.17567338049411702,,,,,,,,
348,GCS_ATTITUDE,13400,-0.23438757658004702,0.043534949421882005,-0.43199977278709406,-0.10708963125944101,-0.12196505814790701,-0.35184869170188904,,,,,,,,
349,UAV_ATTITUDE,13400,-0.015710363164544,0.10296257585287001,-0.772834479808807,0.27224239706993103,0.05892140418291,0.097248718142509,,,,,,,,
350,UAV_GLOBAL_POSITION_INT,13461,,,,,,,427246832.0,-844807652.0,275120.0,3188.0,73.0,110.0,-7.0,31607.0
351,UAV_ATTITUDE,13500,0.002143315970897,0.10434802621603001,-0.7619186043739311,0.09185736626386601,0.012695973739027,0.125219956040382,,,,,,,,
352,GCS_ATTITUDE,13500,-0.24083313345909102,0.022204548120498,-0.453003734350204,-0.06197165697813001,-0.18544788658618902,-0.203134670853614,,,,,,,,
353,GCS_GLOBAL_POSITION_INT,13593,,,,,,,427245924.0,-844808827.0,275230.0,3291.0,-28.0,30.0,-1.0,33340.0
354,UAV_ATTITUDE,13600,0.004588168114423001,0.10805376619100501,-0.7457028627395631,-0.024561382830142003,0.050173401832580004,0.17125019431114102,,,,,,,,
355,GCS_ATTITUDE,13600,-0.250629395246505,-0.0018493919633320003,-0.464979380369186,-0.08872701972723,-0.21367956697940801,-0.140262857079505,,,,,,,,
356,UAV_ATTITUDE,13700,0.0030763261020180003,0.11156299710273701,-0.726745545864105,-0.049840234220027,0.042634237557649,0.209741562604904,,,,,,,,
357,GCS_ATTITUDE,13700,-0.254532814025878,-0.023007793352007002,-0.468806624412536,-0.030704015865921003,-0.183461129665374,-0.068674452602863,,,,,,,,
358,UAV_GLOBAL_POSITION_INT,13793,,,,,,,427246857.0,-844807609.0,275100.0,3164.0,65.0,106.0,-2.0,31970.0
359,UAV_ATTITUDE,13800,-0.0032819639891380004,0.11619848757982201,-0.7012166380882261,-0.11432933807373001,0.049681790173053006,0.285809427499771,,,,,,,,
360,GCS_ATTITUDE,13800,-0.25666570663452104,-0.037138439714908,-0.47144004702568004,-0.020183077082037003,-0.07961521297693201,-0.050707831978797004,,,,,,,,
361,UAV_ATTITUDE,13900,-0.008663309738039,0.12160464376211101,-0.6667684316635131,-0.08145429939031601,0.08007690310478201,0.372969061136245,,,,,,,,
362,GCS_ATTITUDE,13900,-0.254279196262359,-0.035890974104404005,-0.47605526447296104,0.053611408919095,0.08556716144084901,-0.029920373111963,,,,,,,,
363,GCS_GLOBAL_POSITION_INT,13926,,,,,,,427245916.0,-844808810.0,275200.0,3265.0,-31.0,47.0,13.0,33265.0
364,UAV_ATTITUDE,14000,-0.013989115133881002,0.12304423004388801,-0.6273559331893921,-0.120519325137138,-0.017576182261109,0.391011416912078,,,,,,,,
365,GCS_ATTITUDE,14000,-0.250120282173156,-0.022941766306757,-0.48242789506912204,0.044589869678020005,0.159020900726318,-0.039317596703767006,,,,,,,,
366,UAV_ATTITUDE,14100,-0.02429562062025,0.11946943402290301,-0.5898551344871521,-0.156504273414611,-0.033009178936481004,0.366133123636245,,,,,,,,
367,GCS_ATTITUDE,14100,-0.236449375748634,-0.008708327077329001,-0.48996093869209206,0.20039930939674303,0.14935809373855502,-0.035403501242399,,,,,,,,
368,UAV_GLOBAL_POSITION_INT,14125,,,,,,,427246873.0,-844807568.0,275050.0,3112.0,50.0,102.0,27.0,32672.0
369,UAV_ATTITUDE,14200,-0.037766609340906004,0.11467202752828501,-0.5545519590377801,-0.17509277164936002,-0.056009843945503006,0.336472600698471,,,,,,,,
370,GCS_ATTITUDE,14200,-0.21602845191955503,0.001453835051506,-0.49089387059211703,0.173185005784034,0.072285994887351,0.041533514857292,,,,,,,,
371,GCS_GLOBAL_POSITION_INT,14258,,,,,,,427245909.0,-844808785.0,275150.0,3214.0,-28.0,46.0,3.0,33214.0
372,GCS_ATTITUDE,14300,-0.201427668333053,0.008189059793949,-0.480297446250915,0.145541653037071,0.033910926431417,0.16513510048389402,,,,,,,,
373,UAV_ATTITUDE,14300,-0.051489628851413005,0.107084400951862,-0.524907350540161,-0.170692145824432,-0.08809813112020401,0.28363505005836404,,,,,,,,
374,GCS_ATTITUDE,14400,-0.188637167215347,0.012871403247117,-0.46036458015441806,0.09469232708215701,0.009531795978546,0.22902332246303503,,,,,,,,
375,UAV_ATTITUDE,14400,-0.05933503061532901,0.096457630395889,-0.49913996458053506,-0.035367004573345004,-0.14371545612812,0.21949517726898102,,,,,,,,
376,UAV_GLOBAL_POSITION_INT,14458,,,,,,,427246882.0,-844807530.0,274970.0,3037.0,38.0,99.0,3.0,33208.0
377,UAV_ATTITUDE,14500,-0.053354874253273,0.078422561287879,-0.47915574908256503,0.071041323244571,-0.193708688020706,0.18674075603485102,,,,,,,,
378,GCS_ATTITUDE,14500,-0.18641118705272602,0.014129044488072002,-0.43852925300598106,-0.009044154547154001,-0.035305604338645005,0.20504160225391302,,,,,,,,
379,GCS_GLOBAL_POSITION_INT,14590,,,,,,,427245905.0,-844808772.0,275140.0,3204.0,-33.0,20.0,5.0,33586.0
380,UAV_ATTITUDE,14600,-0.048629112541675006,0.064524486660957,-0.45592284202575606,-0.0029589328914880002,-0.089691817760467,0.26595985889434803,,,,,,,,
381,GCS_ATTITUDE,14600,-0.18605349957942902,0.010993863455951,-0.41961824893951405,0.014026792719960001,-0.06561260670423501,0.16705410182476002,,,,,,,,
382,UAV_ATTITUDE,14700,-0.052474439144134,0.066571541130542,-0.42370915412902804,-0.094176441431045,0.07192768156528401,0.35413753986358604,,,,,,,,
383,GCS_ATTITUDE,14700,-0.186544924974441,0.005984633229672001,-0.40445518493652305,-0.032793212682008,-0.070593066513538,0.12913279235363,,,,,,,,
384,UAV_GLOBAL_POSITION_INT,14793,,,,,,,427246887.0,-844807487.0,274920.0,2988.0,20.0,107.0,31.0,33776.0
385,GCS_ATTITUDE,14800,-0.19616785645484902,0.001031528227031,-0.39185047149658203,-0.13397236168384502,-0.061389427632093006,0.112141191959381,,,,,,,,
386,UAV_ATTITUDE,14800,-0.060966007411479006,0.082843050360679,-0.384952396154403,-0.10312720388174,0.181532889604568,0.41640460491180403,,,,,,,,
387,GCS_ATTITUDE,14900,-0.20962829887866902,-0.002446607453748,-0.381453961133956,-0.119126342236995,-0.043415818363428005,0.091564416885375,,,,,,,,
388,UAV_ATTITUDE,14900,-0.056387938559055,0.09970556199550601,-0.34218424558639504,0.10916066914796801,0.10050460696220301,0.43253710865974404,,,,,,,,
389,GCS_GLOBAL_POSITION_INT,14923,,,,,,,427245897.0,-844808764.0,275110.0,3176.0,-51.0,12.0,15.0,33827.0
390,GCS_ATTITUDE,15000,-0.218191608786582,-0.004653275012969,-0.372964888811111,-0.06061761826276701,-0.032436784356832005,0.06785383075475601,,,,,,,,
391,UAV_ATTITUDE,15000,-0.027737744152545003,0.101913057267665,-0.29945132136344904,0.29818350076675404,-0.018353866413235,0.433666676282882,,,,,,,,
392,GCS_ATTITUDE,15100,-0.22326864302158303,-0.008262144401669001,-0.37472736835479703,-0.040165949612855,-0.030401721596717002,-0.08460388332605301,,,,,,,,
393,UAV_ATTITUDE,15100,0.002044800668954,0.09908608347177501,-0.252204328775405,0.178490102291107,-0.017114575952291003,0.504533469676971,,,,,,,,
394,UAV_GLOBAL_POSITION_INT,15126,,,,,,,427246884.0,-844807443.0,274910.0,2978.0,-10.0,102.0,22.0,34633.0
395,GCS_ATTITUDE,15200,-0.21302966773509902,-0.012986241839826001,-0.37913301587104803,0.179703921079635,-0.051215328276157004,0.022381599992513,,,,,,,,
396,UAV_ATTITUDE,15200,0.008729681372642,0.09815111011266701,-0.19664855301380102,-0.087030246853828,0.033195111900568,0.571241617202758,,,,,,,,
397,GCS_GLOBAL_POSITION_INT,15256,,,,,,,427245886.0,-844808755.0,275110.0,3176.0,-45.0,7.0,2.0,33858.0
398,UAV_ATTITUDE,15300,-0.002116836607456,0.100991919636726,-0.140789046883583,-0.18548384308815002,0.051022008061409004,0.5333424806594841,,,,,,,,
399,GCS_ATTITUDE,15300,-0.20673882961273102,-0.01893319748342,-0.367436945438385,-0.038381315767765004,-0.09485153108835201,0.134141102433204,,,,,,,,
400,UAV_ATTITUDE,15400,-0.011802187189459001,0.10072790086269301,-0.09083148092031401,-0.10724388808012,-0.029994772747159,0.4820356965065,,,,,,,,
401,GCS_ATTITUDE,15400,-0.215300723910331,-0.026495987549424,-0.35038411617279,-0.064297407865524,-0.104578495025634,0.17229133844375602,,,,,,,,
402,UAV_GLOBAL_POSITION_INT,15458,,,,,,,427246876.0,-844807401.0,274890.0,2958.0,-20.0,93.0,4.0,35627.0
403,UAV_ATTITUDE,15500,-0.015664843842387,0.08622676134109401,-0.049195986241102004,-0.07062374055385501,-0.20527507364749903,0.369656592607498,,,,,,,,
404,GCS_ATTITUDE,15500,-0.212008982896804,-0.031913634389638006,-0.331194579601287,0.087564937770366,-0.073355205357074,0.18094030022621102,,,,,,,,
405,GCS_GLOBAL_POSITION_INT,15590,,,,,,,427245878.0,-844808747.0,275120.0,3184.0,-40.0,0.0,9.0,34187.0
406,GCS_ATTITUDE,15600,-0.20713891088962502,-0.033250704407691005,-0.31503015756607,0.018790934234857,-0.022573066875338003,0.148629993200302,,,,,,,,
407,UAV_ATTITUDE,15600,-0.01935202628374,0.05816476792097001,-0.017671722918748002,-0.051267590373754,-0.294989943504333,0.296681821346282,,,,,,,,
408,UAV_ATTITUDE,15700,-0.022669931873679,0.035676207393407,0.010177507996559,-0.055324092507362005,-0.150370389223098,0.27677381038665705,,,,,,,,
409,GCS_ATTITUDE,15700,-0.205141812562942,-0.03063035570085,-0.299966871738433,0.048692069947719005,0.014494930393993001,0.161891311407089,,,,,,,,
410,UAV_GLOBAL_POSITION_INT,15790,,,,,,,427246862.0,-844807359.0,274980.0,3042.0,-29.0,98.0,21.0,193.0
411,GCS_ATTITUDE,15800,-0.195283040404319,-0.02439722418785,-0.286768078804016,0.125732854008674,0.05662157386541301,0.121869757771492,,,,,,,,
412,UAV_ATTITUDE,15800,-0.035819046199321004,0.034264679998159006,0.036300182342529005,-0.19689679145812902,0.065324984490871,0.256032347679138,,,,,,,,
413,GCS_ATTITUDE,15900,-0.18057352304458602,-0.015514362603425001,-0.278340756893157,0.15466675162315302,0.08313385397195801,0.093291841447353,,,,,,,,
414,UAV_ATTITUDE,15900,-0.060183674097061005,0.050852581858634005,0.061110023409128,-0.277934521436691,0.211464986205101,0.24936361610889402,,,,,,,,
415,GCS_GLOBAL_POSITION_INT,15923,,,,,,,427245868.0,-844808737.0,275110.0,3177.0,-44.0,0.0,2.0,34416.0
416,GCS_ATTITUDE,16000,-0.16574408113956401,-0.005535477772355001,-0.269536763429641,0.13617311418056402,0.08065883070230401,0.114742524921894,,,,,,,,
417,UAV_ATTITUDE,16000,-0.07875968515872901,0.07430936396121901,0.08496838063001601,-0.10677822679281201,0.21031892299652102,0.2415242344141,,,,,,,,
418,UAV_ATTITUDE,16100,-0.077615514397621,0.092286154627799,0.111056879162788,0.035928755998611006,0.126553699374198,0.289891630411148,,,,,,,,
419,GCS_ATTITUDE,16101,-0.15254172682762102,0.0024339775554830002,-0.253749459981918,0.126067399978637,0.041734684258699,0.208190098404884,,,,,,,,
420,UAV_GLOBAL_POSITION_INT,16123,,,,,,,427246843.0,-844807319.0,275080.0,3145.0,-55.0,88.0,2.0,674.0
421,GCS_ATTITUDE,16200,-0.14215651154518102,0.006607428193092,-0.22708660364151,0.08459862321615201,-0.008211369626224001,0.30708491802215504,,,,,,,,
422,UAV_ATTITUDE,16200,-0.067761898040771,0.10240592807531301,0.144956275820732,0.058133520185947,0.06275217980146401,0.38376191258430403,,,,,,,,
423,GCS_GLOBAL_POSITION_INT,16256,,,,,,,427245858.0,-844808731.0,275120.0,3189.0,-26.0,-13.0,2.0,34802.0
424,GCS_ATTITUDE,16300,-0.13912993669509802,0.007506867870688,-0.193905845284461,-0.0057791396975510004,-0.038617957383394005,0.33997872471809304,,,,,,,,
425,UAV_ATTITUDE,16300,-0.05748508125543501,0.10843554884195301,0.18829442560672702,0.060323987156152004,0.038311313837766,0.462295114994049,,,,,,,,
426,GCS_ATTITUDE,16400,-0.137874871492385,0.006664751097559001,-0.16049563884735102,0.013147450983524002,-0.046408761292696006,0.31724980473518305,,,,,,,,
427,UAV_ATTITUDE,16400,-0.045649331063032005,0.115448243916034,0.23427523672580702,0.07632705569267201,0.06589416414499201,0.43960154056549006,,,,,,,,
428,UAV_GLOBAL_POSITION_INT,16456,,,,,,,427246818.0,-844807281.0,275170.0,3236.0,-75.0,86.0,9.0,1470.0
429,UAV_ATTITUDE,16500,-0.037030152976512,0.11963901668787001,0.272903174161911,0.004109093919396001,-0.0006709378212690001,0.356113642454147,,,,,,,,
430,GCS_ATTITUDE,16500,-0.13905014097690502,0.006528344936668,-0.133392378687858,-0.028477102518081002,-0.020487707108259003,0.24191100895404802,,,,,,,,
431,GCS_GLOBAL_POSITION_INT,16588,,,,,,,427245849.0,-844808730.0,275130.0,3192.0,-27.0,-32.0,3.0,35343.0
